     2.10           OBSERVATION DATA    G (GPS)             RINEX VERSION / TYPE
Convert             CompanyName         08-Jun-2004 09:22   PGM / RUN BY / DATE 
Signal Strength values S1,S2 are in dBHz                    COMMENT             
MarkerName                                                  MARKER NAME         
MarkerNumber                                                MARKER NUMBER       
Observer            Agency                                  OBSERVER / AGENCY   
Rec Number          NovAtel GPSCard     Rec Version         REC # / TYPE / VERS 
Antenna Number      Antenna Type                            ANT # / TYPE        
-2956892.5696 5075848.9991  2476388.3262                    APPROX POSITION XYZ 
        0.0000        0.0000        0.0000                  ANTENNA: DELTA H/E/N
     1     1                                                WAVELENGTH FACT L1/2
     1     1     7   G03   G06   G14   G16   G20   G22   G25WAVELENGTH FACT L1/2
     1     1     1   G30                                    WAVELENGTH FACT L1/2
                                                            COMMENT             
                                                            COMMENT             
                                                            COMMENT             
     8    C1    L1    D1    S1    P2    L2    D2    S2      # / TYPES OF OBSERV 
     1.000                                                  INTERVAL            
  2004    06    07    12    06    27.0000000    GPS         TIME OF FIRST OBS   
  2004    06    07    12    29    56.0000000    GPS         TIME OF LAST OBS    
Leap Seconds Unknown                                        COMMENT             
                                                            END OF HEADER       
 04 06 07 12 06 27.0000000  0  6G16G25G 6G30G14G22                              
  21920615.85647 114450934.09547      2276.12547        44.800    21920618.06641
  89182696.44241      1773.43841        27.700  
  21755267.64548 113582029.92448       396.31348        47.200    21755269.10341
  88505623.47341       308.62541        24.400  
  22775234.11846 119684677.38346      -244.81346        43.300    22775236.27341
  93260809.52141      -190.93841        20.500  
  22971082.05646 119971156.80746     -3228.87546        42.000    22971083.94741
  94062760.13241     -2516.18841        16.200  
  20670720.74748 107882682.70348      -629.37548        47.700    20670722.00041
  84064575.13441      -490.56341        31.100  
  23560690.52946 123069599.70646     -3361.56346        41.200    23560692.35641
  96477079.21841     -2619.56341        11.300  
 04 06 07 12 06 28.0000000  0  6G16G25G 6G30G14G22                              
  21920182.81747 114448658.55347      2275.43847        44.800    21920185.38941
  89180923.30141      1772.87541        27.700  
  21755192.26948 113581633.81048       396.12548        47.200    21755193.95641
  88505314.82041       308.50041        29.100  
  22775280.78947 119684922.60747      -245.50047        43.400    22775285.19241
  93261000.65141      -191.43841        20.800  
  22971696.54746 119974385.94346     -3229.12546        42.200    22971698.38141
  94065276.33641     -2516.37541        13.600  
  20670840.60248 107883312.51048      -630.00048        47.700    20670841.67341
  84065065.89341      -491.06341        28.100  
  23561330.23646 123072961.37246     -3361.75046        41.200    23561332.02941
  96479698.66941     -2619.68841        19.000  
 04 06 07 12 06 29.0000000  0  6G16G25G 6G30G14G22                              
  21919749.87747 114446383.50647      2274.56347        44.800    21919752.44141
  89179150.55541      1772.25041        24.800  
  21755116.90448 113581237.76248       395.87548        47.300    21755118.56841
  88505006.20841       308.31341        28.800  
  22775327.56446 119685168.41546      -246.06346        43.300    22775331.94041
  93261192.17341      -191.87541        11.800  
  22972311.07046 119977615.24546     -3229.50046        41.900    22972312.88141
  94067792.69941     -2516.68841        30.000  
  20670960.55849 107883942.88649      -630.75049        47.900    20670961.61141
  84065557.11341      -491.68841        29.200  
  23561969.95146 123076323.12046     -3361.87546        41.300    23561971.77741
  96482318.22941     -2619.81341        11.000  
 04 06 07 12 06 30.0000000  0  6G16G25G 6G30G14G22                              
  21919317.02447 114444108.93147      2274.37547        44.900    21919320.21041
  89177378.16841      1772.06341        24.200  
  21755041.55348 113580841.77448       396.18848        47.200    21755043.60941
  88504697.67041       308.56341        24.700  
  22775374.45746 119685414.81546      -246.75046        43.100    22775377.53441
  93261384.16941      -192.43841        10.600  
  22972925.61646 119980844.72546     -3229.50046        41.900    22972928.24141
  94070309.20341     -2516.68841        25.800  
  20671080.62549 107884573.81849      -631.25049        47.900    20671082.35741
  84066048.74941      -492.06341        26.800  
  23562609.69945 123079684.95145     -3361.68845        41.000    23562611.46941
  96484937.75441     -2619.68841        29.200  
 04 06 07 12 06 31.0000000  0  6G16G25G 6G30G14G22                              
  21918884.24747 114441834.70347      2274.12547        45.000    21918887.41641
  89175606.05141      1771.87541        22.700  
  21754966.18648 113580445.72748       396.12548        47.300    21754968.21941
  88504389.06141       308.50041        29.200  
  22775421.43546 119685661.64346      -247.00046        43.300    22775424.46841
  93261576.44241      -192.62541        19.200  
  22973540.17946 119984074.24246     -3229.50046        42.000    22973542.78441
  94072825.72641     -2516.68841        23.900  
  20671200.76749 107885205.16349      -631.50049        47.800    20671202.47341
  84066540.69741      -492.25041        30.200  
  23563249.41945 123083046.75345     -3361.56345        40.800    23563248.25841
  96487557.38241     -2619.56341        24.600  
 04 06 07 12 06 32.0000000  0  6G16G25G 6G30G14G22                              
  21918451.56947 114439561.05247      2273.50047        45.000    21918455.23741
  89173834.37841      1771.37541        24.400  
  21754890.85448 113580049.82948       395.81348        47.300    21754892.46041
  88504080.54941       308.25041        29.300  
  22775468.52947 119685909.15247      -247.81347        43.400    22775470.85341
  93261769.31741      -193.25041        25.700  
  22974154.78746 119987304.03246     -3230.12546        42.100    22974158.04441
  94075342.48741     -2517.12541        12.000  
  20671321.03149 107885837.15849      -632.31349        47.900    20671322.28241
  84067033.15941      -492.87541        28.500  
  23563889.18545 123086408.72245     -3361.68845        40.900    23563887.98541
  96490177.04041     -2619.68841        12.300  
 04 06 07 12 06 33.0000000  0  6G16G25G 6G30G14G22                              
  21918018.97047 114437287.81647      2273.18847        45.100    21918022.63241
  89172063.01441      1771.12541        19.500  
  21754815.52148 113579653.92948       396.06348        47.200    21754817.10741
  88503772.06241       308.43841        26.400  
  22775515.73346 119686157.16646      -248.31346        43.300    22775518.02941
  93261962.58141      -193.62541        22.400  
  22974769.44746 119990533.92246     -3229.87546        41.900    22974772.64941
  94077859.26941     -2516.93841        26.500  
  20671441.39149 107886469.64749      -632.68849        47.800    20671442.61641
  84067526.01641      -493.18841        27.300  
  23564528.95945 123089770.73345     -3361.93845        41.100    23564527.11341
  96492796.76941     -2619.87541        20.200  
 04 06 07 12 06 34.0000000  0  6G16G25G 6G30G14G22                              
  21917586.44247 114435014.89147      2272.93847        45.100    21917589.16341
  89170291.90041      1770.93841        21.300  
  21754740.16648 113579257.92848       396.18848        47.400    21754742.25341
  88503463.49741       308.56341        24.500  
  22775563.00047 119686405.58147      -248.43847        43.600    22775564.32641
  93262156.18441      -193.75041        24.000  
  22975384.08046 119993763.81246     -3229.56346        42.100    22975386.19441
  94080376.06541     -2516.68841        10.200  
  20671561.82649 107887102.50349      -632.87549        47.800    20671563.06341
  84068019.15141      -493.31341        30.800  
  23565168.70145 123093132.65045     -3361.68845        41.000    23565166.85741
  96495416.50341     -2619.68841        28.600  
 04 06 07 12 06 35.0000000  0  6G16G25G 6G30G14G22                              
  21917153.92847 114432742.15447      2272.56347        45.000    21917156.64341
  89168520.89941      1770.68841        24.300  
  21754664.75548 113578861.68348       396.31348        47.300    21754666.82741
  88503154.73141       308.62541        25.300  
  22775610.33247 119686654.27247      -248.93847        43.500    22775611.62441
  93262349.94141      -194.12541        27.000  
  22975998.69646 119996993.59346     -3230.00046        42.200    22976000.77041
  94082892.72941     -2517.06341        17.900  
  20671682.31249 107887735.61849      -633.31349        47.800    20671683.52041
  84068512.47841      -493.62541        30.700  
  23565808.40345 123096494.34145     -3361.68845        40.700    23565806.88141
  96498035.99641     -2619.68841        15.000  
 04 06 07 12 06 36.0000000  0  6G16G25G 6G30G14G22                              
  21916721.51547 114430469.94647      2271.93847        45.100    21916723.56241
  89166750.33941      1770.18841        22.500  
  21754589.37448 113578465.56348       396.12548        47.400    21754591.66841
  88502846.08241       308.50041        25.900  
  22775657.78647 119686903.61447      -249.62547        43.400    22775660.23841
  93262544.26841      -194.68841        26.500  
  22976613.33846 120000223.57446     -3230.00046        41.900    22976614.69141
  94085409.58541     -2517.06341        25.800  
  20671802.91849 107888369.33649      -633.93849        47.800    20671803.92541
  84069006.27341      -494.12541        27.000  
  23566448.14145 123099856.17545     -3361.62545        40.800    23566446.58841
  96500655.59541     -2619.62541        28.300  
 04 06 07 12 06 37.0000000  0  6G16G25G 6G30G14G22                              
  21916289.20247 114428198.13947      2271.62547        44.900    21916291.24241
  89164980.14041      1769.93841        20.000  
  21754513.99748 113578069.43248       396.25048        47.300    21754516.26641
  88502537.41641       308.62541        27.900  
  22775705.33547 119687153.45147      -250.18847        43.400    22775707.76541
  93262738.97341      -195.12541        22.300  
  22977228.00246 120003453.66746     -3230.00046        42.100    22977229.33741
  94087926.55741     -2517.06341        27.400  
  20671923.59449 107889003.52949      -634.25049        47.800    20671924.58541
  84069500.45741      -494.37541        31.000  
  23567087.86045 123103218.01745     -3361.75045        40.600    23567086.09841
  96503275.22941     -2619.68841        22.000  
 04 06 07 12 06 38.0000000  0  6G16G25G 6G30G14G22                              
  21915856.97347 114425926.79047      2271.00047        44.800    21915860.05741
  89163210.26841      1769.43841        11.500  
  21754438.62048 113577673.34448       395.81348        47.300    21754439.68241
  88502228.75541       308.25041        26.700  
  22775752.98346 119687403.82646      -250.56346        43.200    22775756.26441
  93262934.06241      -195.43841        25.900  
  22977842.70146 120006683.89646     -3230.18846        42.100    22977845.37341
  94090443.64041     -2517.18841        24.200  
  20672044.37248 107889638.24248      -635.00048        47.700    20672045.43841
  84069995.03741      -495.00041        29.400  
  23567727.60245 123106579.92445     -3362.00045        40.500    23567725.82541
  96505894.90641     -2619.87541        11.800  
 04 06 07 12 06 39.0000000  0  6G16G25G 6G30G14G22                              
  21915424.84847 114423656.06947      2270.56347        44.700    21915427.92841
  89161440.85541      1769.12541        26.600  
  21754363.27948 113577277.47148       395.68848        47.200    21754364.33341
  88501920.30741       308.18841        23.800  
  22775800.77847 119687654.96047      -251.56347        43.400    22775804.02241
  93263129.72141      -196.18841        25.800  
  22978457.45846 120009914.46246     -3230.50046        42.000    22978460.11541
  94092961.00341     -2517.43841        25.900  
  20672165.28149 107890273.66149      -635.50049        47.800    20672166.33341
  84070490.17941      -495.37541        28.100  
  23568367.42945 123109942.07545     -3362.18845        40.400    23568364.42941
  96508514.79441     -2620.06341        11.700  
 04 06 07 12 06 40.0000000  0  6G16G25G 6G30G14G22                              
  21914992.79947 114421385.73947      2270.06347        44.600    21914995.59741
  89159671.78441      1768.68841        23.700  
  21754287.93848 113576881.55948       395.81348        47.200    21754289.63641
  88501611.82141       308.25041        26.500  
  22775848.66046 119687906.52546      -251.93846        43.300    22775850.75641
  93263325.76241      -196.50041        27.400  
  22979072.24446 120013145.10946     -3230.68846        42.300    22979074.80141
  94095478.34841     -2517.56341        27.800  
  20672286.28949 107890909.55149      -636.12549        47.800    20672287.27841
  84070985.66941      -495.87541        29.300  
  23569007.21345 123113304.20345     -3361.93845        40.300    23569004.19241
  96511134.60541     -2619.87541        11.600  
 04 06 07 12 06 41.0000000  0  6G16G25G 6G30G14G22                              
  21914560.81447 114419115.74247      2270.00047        44.600    21914563.60841
  89157902.96441      1768.68841        19.900  
  21754212.59348 113576485.58848       396.00048        47.200    21754214.26341
  88501303.27141       308.43841        30.000  
  22775896.62447 119688158.57047      -252.12547        43.600    22775898.69441
  93263522.14141      -196.62541        23.000  
  22979687.05046 120016375.79946     -3230.75046        42.100    22979689.55141
  94097995.74541     -2517.62541        10.100  
  20672407.37249 107891545.85349      -636.43849        47.900    20672408.34141
  84071481.49541      -496.06341        30.200  
  23569647.00245 123116666.29445     -3361.87545        40.500    23569646.90441
  96513754.50041     -2619.81341        24.200  
 04 06 07 12 06 42.0000000  0  6G16G25G 6G30G14G22                              
  21914128.91447 114416846.13347      2269.25047        44.800    21914131.82341
  89156134.42941      1768.06341        25.200  
  21754137.22748 113576089.55648       395.93848        47.200    21754139.05441
  88500994.67241       308.37541        27.000  
  22775944.67247 119688411.06947      -252.87547        43.600    22775946.65641
  93263718.89741      -197.18841         8.600  
  22980301.84146 120019606.52746     -3230.93846        42.100    22980301.37441
  94100513.14741     -2517.75041        17.900  
  20672528.53849 107892182.60749      -637.12549        47.900    20672530.11541
  84071977.67441      -496.62541        28.900  
  23570286.78645 123120028.36545     -3362.25045        40.500    23570286.65041
  96516374.24941     -2620.12541        28.200  
 04 06 07 12 06 43.0000000  0  6G16G25G 6G30G14G22                              
  21913697.10947 114414577.08147      2268.93847        44.600    21913700.01541
  89154366.34341      1767.81341        27.800  
  21754061.88148 113575693.67048       396.00048        47.200    21754063.68941
  88500686.17641       308.43841        27.100  
  22775992.85547 119688664.21847      -253.31347        43.400    22775994.80841
  93263916.15541      -197.56341        22.600  
  22980916.68846 120022837.53746     -3230.87546        42.200    22980916.20041
  94103030.84941     -2517.75041        23.800  
  20672649.83149 107892819.99349      -637.50049        47.800    20672651.38841
  84072474.34641      -496.93841        29.900  
  23570926.58845 123123390.61745     -3362.06345        40.700    23570924.97241
  96518994.16341     -2619.93841        11.600  
 04 06 07 12 06 44.0000000  0  6G16G25G 6G30G14G22                              
  21913265.42547 114412308.65047      2268.06347        44.700    21913268.61241
  89152598.76041      1767.18841        26.000  
  21753986.58548 113575297.99848       395.68848        47.200    21753988.02041
  88500377.85841       308.18841        24.300  
  22776041.17547 119688918.10147      -254.12547        43.500    22776041.55041
  93264113.97341      -198.18841        23.900  
  22981531.60046 120026068.87346     -3231.43846        42.300    22981531.90141
  94105548.76441     -2518.18841        28.300  
  20672771.24749 107893458.06349      -638.31349        47.800    20672773.10941
  84072971.54241      -497.56341        29.000  
  23571566.42045 123126753.07545     -3362.37545        40.500    23571564.80741
  96521614.27341     -2620.18841        18.700  
 04 06 07 12 06 45.0000000  0  6G16G25G 6G30G14G22                              
  21912833.82847 114410040.66947      2267.93847        44.800    21912837.00341
  89150831.48641      1767.06341        28.000  
  21753911.29248 113574902.36048       395.75048        47.100    21753912.71441
  88500069.57841       308.18841        22.500  
  22776089.59147 119689172.52647      -254.81347        43.400    22776089.93941
  93264312.20641      -198.75041        14.300  
  22982146.53846 120029300.34846     -3231.56346        42.300    22982146.81241
  94108066.80841     -2518.25041        24.100  
  20672892.77949 107894096.69049      -638.81349        47.800    20672894.61041
  84073469.17041      -497.93841        29.600  
  23572206.28745 123130115.58545     -3362.18845        41.000    23572204.99841
  96524234.41841     -2620.06341        25.700  
 04 06 07 12 06 46.0000000  0  6G16G25G 6G30G14G22                              
  21912402.29547 114407773.00347      2267.37547        44.700    21912404.90541
  89149064.47441      1766.62541        25.300  
  21753835.98348 113574506.61648       395.56348        47.200    21753837.79041
  88499761.21441       308.06341        24.200  
  22776138.08747 119689427.35547      -255.18847        43.500    22776138.19141
  93264510.80041      -199.00041        24.100  
  22982761.47846 120032531.82646     -3231.62546        42.100    22982763.15741
  94110584.84041     -2518.31341        28.400  
  20673014.36549 107894735.68049      -639.25049        47.800    20673015.81541
  84073967.09341      -498.31341        30.300  
  23572846.11345 123133478.01545     -3362.43845        41.100    23572844.82641
  96526854.49441     -2620.25041        11.200  
 04 06 07 12 06 47.0000000  0  6G16G25G 6G30G14G22                              
  21911970.83047 114405505.74347      2267.18847        44.600    21911973.43741
  89147297.77741      1766.50041        25.500  
  21753760.67248 113574110.84548       395.75048        47.100    21753762.45741
  88499452.83841       308.18841        27.300  
  22776186.69547 119689682.69047      -255.68847        43.400    22776186.76941
  93264709.80641      -199.37541        21.300  
  22983376.44246 120035763.38646     -3231.50046        42.100    22983378.08341
  94113102.94641     -2518.18841        25.800  
  20673136.05249 107895375.15349      -639.68849        47.800    20673137.48241
  84074465.37241      -498.62541        28.000  
  23573485.96845 123136840.46745     -3362.18845        41.100    23573486.03341
  96529474.60841     -2620.06341        16.400  
 04 06 07 12 06 48.0000000  0  6G16G25G 6G30G14G22                              
  21911539.43847 114403238.83947      2266.81347        44.600    21911542.19741
  89145531.35541      1766.18841        27.700  
  21753685.34748 113573715.03148       395.81348        47.200    21753687.46241
  88499144.40941       308.25041        23.200  
  22776235.38147 119689938.47647      -256.00047        43.500    22776237.03341
  93264909.09241      -199.62541        20.200  
  22983991.42246 120038995.03246     -3231.81346        42.100    22983993.86241
  94115621.11241     -2518.43841        10.100  
  20673257.82549 107896015.06249      -640.12549        47.800    20673258.75941
  84074964.00241      -498.93841        30.000  
  23574125.79645 123140202.86345     -3362.31345        40.900    23574125.86441
  96532094.70041     -2620.12541        25.100  
 04 06 07 12 06 49.0000000  0  6G16G25G 6G30G14G22                              
  21911108.12347 114400972.35947      2266.06347        44.700    21911110.87541
  89143765.26641      1765.62541        27.400  
  21753610.01748 113573319.20048       395.68848        47.200    21753612.11641
  88498835.97841       308.18841        25.500  
  22776284.14946 119690194.77446      -256.68846        43.200    22776285.78141
  93265108.80441      -200.18841        26.800  
  22984606.39946 120042226.75346     -3231.93846        41.900    22984608.82041
  94118139.35941     -2518.56341        18.300  
  20673379.68749 107896655.45449      -640.87549        47.800    20673380.60041
  84075463.01641      -499.56341        30.600  
  23574765.64745 123143565.30845     -3362.81345        40.900    23574765.63341
  96534714.82941     -2620.56341        30.300  
 04 06 07 12 06 50.0000000  0  6G16G25G 6G30G14G22                              
  21910676.90747 114398706.36047      2265.87547        44.800    21910679.49641
  89141999.57141      1765.43841        21.000  
  21753534.70248 113572923.45148       395.87548        47.200    21753536.99841
  88498527.59941       308.31341        26.100  
  22776333.01947 119690451.65947      -257.25047        43.400    22776335.18241
  93265309.01641      -200.62541        23.100  
  22985221.40746 120045458.66946     -3231.93846        42.000    22985222.57541
  94120657.71441     -2518.56341        17.000  
  20673501.66149 107897296.40749      -641.31349        47.900    20673502.81441
  84075962.44941      -499.87541        28.600  
  23575405.51445 123146927.84245     -3362.56345        40.700    23575405.47941
  96537334.95941     -2620.31341        11.600  
 04 06 07 12 06 51.0000000  0  6G16G25G 6G30G14G22                              
  21910245.77747 114396440.74447      2265.50047        44.700    21910248.34741
  89140234.17341      1765.18841        25.200  
  21753459.39048 113572527.64748       395.93848        47.100    21753461.66241
  88498219.18941       308.37541        23.900  
  22776381.96747 119690709.00547      -257.62547        43.500    22776384.13141
  93265509.53741      -200.93841        24.600  
  22985836.41846 120048690.63846     -3232.06346        42.000    22985837.58641
  94123176.16741     -2518.62541        24.700  
  20673623.72449 107897937.80049      -641.56349        47.800    20673624.85041
  84076462.24141      -500.06341        29.300  
  23576045.36745 123150290.32945     -3362.56345        40.700    23576044.80141
  96539954.99841     -2620.31341        22.700  
 04 06 07 12 06 52.0000000  0  6G16G25G 6G30G14G22                              
  21909814.71147 114394175.56747      2265.06347        45.000    21909818.30641
  89138469.11141      1764.81341        25.800  
  21753384.07848 113572131.88848       395.75048        47.200    21753386.54441
  88497910.81241       308.18841        25.000  
  22776431.04747 119690966.90047      -258.12547        43.600    22776432.38141
  93265710.49141      -201.31341         8.700  
  22986451.45746 120051922.75446     -3232.25046        42.200    22986454.11741
  94125694.70941     -2518.81341        27.300  
  20673745.88249 107898579.72249      -642.18849        47.900    20673747.27141
  84076962.45041      -500.56341        30.300  
  23576685.22545 123153652.87745     -3362.37545        40.700    23576684.65241
  96542575.17941     -2620.18841        17.700  
 04 06 07 12 06 53.0000000  0  6G16G25G 6G30G14G22                              
  21909383.76447 114391910.99547      2264.18847        45.000    21909387.35341
  89136704.52741      1764.12541        25.600  
  21753308.79548 113571736.29048       395.62548        47.100    21753311.23841
  88497602.54641       308.12541        26.300  
  22776480.25747 119691225.48747      -259.06347        43.600    22776481.57241
  93265912.01341      -202.06341         8.600  
  22987066.57546 120055155.15846     -3232.50046        42.000    22987069.19741
  94128213.44241     -2519.00041        28.800  
  20673868.15649 107899222.30649      -642.93849        47.800    20673869.52841
  84077463.17541      -501.12541        29.100  
  23577325.12945 123157015.63345     -3362.68845        40.700    23577325.17841
  96545195.49041     -2620.43841        15.100  
 04 06 07 12 06 54.0000000  0  6G16G25G 6G30G14G22                              
  21908952.91747 114389646.93747      2263.87547        45.000    21908956.59141
  89134940.29341      1763.87541        27.200  
  21753233.53548 113571340.81648       395.43848        47.100    21753235.66841
  88497294.36441       307.93841        28.000  
  22776529.57947 119691484.69647      -259.37547        43.400    22776530.27341
  93266114.00241      -202.25041        22.400  
  22987681.72846 120058387.77246     -3232.50046        42.100    22987683.54041
  94130732.34541     -2519.00041        18.200  
  20673990.54649 107899865.48449      -643.43849        47.800    20673991.90241
  84077964.35041      -501.56341        29.500  
  23577965.04045 123160378.51245     -3362.81345        40.700    23577965.08041
  96547815.87741     -2620.56341        11.500  
 04 06 07 12 06 55.0000000  0  6G16G25G 6G30G14G22                              
  21908522.14447 114387383.24947      2263.50047        45.100    21908525.80041
  89133176.37841      1763.62541        27.100  
  21753158.25648 113570945.26948       395.75048        46.900    21753160.37341
  88496986.14541       308.18841        29.000  
  22776578.98547 119691744.35747      -259.87547        43.500    22776579.65041
  93266316.28841      -202.68841        22.600  
  22988296.90746 120061620.46346     -3233.00046        42.100    22988298.67841
  94133251.31441     -2519.37541        10.200  
  20674113.01549 107900509.09449      -643.68849        47.800    20674114.35441
  84078465.87041      -501.75041        28.800  
  23578604.97045 123163741.35045     -3362.62545        40.600    23578602.51841
  96550436.32241     -2620.37541        24.800  
 04 06 07 12 06 56.0000000  0  6G16G25G 6G30G14G22                              
  21908091.44147 114385120.01547      2262.93847        45.100    21908095.11241
  89131412.81741      1763.18841        22.800  
  21753082.98748 113570549.76948       395.50048        47.000    21753084.55741
  88496677.97041       308.00041        29.000  
  22776628.51147 119692004.57447      -260.50047        43.400    22776629.04241
  93266519.06141      -203.12541        28.100  
  22988912.08646 120064853.26146     -3232.87546        41.900    22988913.17641
  94135770.35441     -2519.31341        23.800  
  20674235.59549 107901153.25049      -644.56349        47.900    20674237.27741
  84078967.80041      -502.43841        30.400  
  23579244.88645 123167104.27645     -3363.12545        40.200    23579242.44541
  96553056.80941     -2620.75041        20.600  
 04 06 07 12 06 57.0000000  0  6G16G25G 6G30G14G22                              
  21907660.81947 114382857.14847      2262.93847        45.000    21907664.48741
  89129649.57141      1763.18841        20.400  
  21753007.71148 113570154.21948       395.75048        47.000    21753009.26841
  88496369.76541       308.18841        28.900  
  22776678.11046 119692265.24346      -260.93846        43.300    22776678.62141
  93266722.17041      -203.50041        10.600  
  22989527.25846 120068086.12846     -3232.93846        42.100    22989528.35141
  94138289.48941     -2519.31341        21.900  
  20674358.25849 107901797.83149      -644.81349        47.800    20674359.91541
  84079470.06241      -502.62541        29.800  
  23579884.80845 123170467.13945     -3362.56345        40.100    23579884.34741
  96555677.29441     -2620.31341        12.100  
 04 06 07 12 06 58.0000000  0  6G16G25G 6G30G14G22                              
  21907230.24647 114380594.53647      2262.43847        44.900    21907233.93041
  89127886.49741      1762.75041        22.100  
  21752932.42148 113569758.51948       395.50048        47.000    21752934.47841
  88496061.45341       308.00041        25.600  
  22776727.79147 119692526.27147      -261.31347        43.500    22776728.98241
  93266925.63441      -203.81341        21.500  
  22990142.43846 120071318.94546     -3233.00046        42.300    22990144.84141
  94140808.60041     -2519.37541        24.700  
  20674480.98149 107902442.74749      -645.31349        47.900    20674482.49741
  84079972.58141      -503.00041        31.200  
  23580524.69845 123173829.87845     -3362.62545        40.100    23580524.22441
  96558297.56441     -2620.37541        26.000  
 04 06 07 12 06 59.0000000  0  6G16G25G 6G30G14G22                              
  21906799.76047 114378332.37047      2262.00047        45.000    21906803.43241
  89126123.75841      1762.43841        25.800  
  21752857.11148 113569362.81348       395.81348        46.900    21752859.15641
  88495753.11241       308.25041        26.200  
  22776777.56247 119692787.83347      -261.68847        43.500    22776778.73641
  93267129.46341      -204.06341        22.100  
  22990757.65046 120074551.87646     -3232.87546        41.800    22990760.03041
  94143327.79141     -2519.31341        27.400  
  20674603.80449 107903088.17349      -645.56349        47.800    20674605.29941
  84080475.52641      -503.18841        28.300  
  23581164.59945 123177192.66945     -3363.00045        39.800    23581164.05041
  96560917.95341     -2620.68841        12.300  
 04 06 07 12 07  0.0000000  0  6G16G25G 6G30G14G22                              
  21906369.31447 114376070.44247      2261.75047        45.000    21906372.50641
  89124361.22341      1762.25041        26.700  
  21752781.77048 113568966.94348       395.93848        46.900    21752783.52641
  88495444.64941       308.37541        27.000  
  22776827.40746 119693049.71746      -262.00046        43.300    22776829.65841
  93267333.50441      -204.31341        14.300  
  22991372.84546 120077784.74346     -3232.87546        42.100    22991376.42541
  94145846.91241     -2519.31341        21.000  
  20674726.68149 107903733.91249      -646.00049        47.800    20674728.24441
  84080978.70641      -503.56341        30.500  
  23581804.48845 123180555.27045     -3362.31345        39.600    23581803.92241
  96563538.21241     -2620.12541        25.200  
 04 06 07 12 07  1.0000000  0  6G16G25G 6G30G14G22                              
  21905938.94247 114373808.81147      2261.50047        45.000    21905942.11141
  89122598.90241      1762.06341        29.000  
  21752706.41348 113568570.97148       396.06348        47.000    21752708.15341
  88495136.09841       308.43841        26.700  
  22776877.32046 119693312.02146      -262.37546        43.300    22776879.54641
  93267537.87441      -204.62541         9.200  
  22991988.05846 120081017.63146     -3232.93846        41.900    22991991.59541
  94148366.01741     -2519.31341        17.500  
  20674849.63549 107904380.03049      -646.18849        47.900    20674851.17241
  84081482.16341      -503.68841        30.300  
  23582444.34345 123183917.81045     -3362.25045        40.100    23582444.31941
  96566158.35741     -2620.12541        12.300  
 04 06 07 12 07  2.0000000  0  6G16G25G 6G30G14G22                              
  21905508.68947 114371547.82747      2260.62547        45.000    21905511.73641
  89120837.10341      1761.37541        25.300  
  21752631.09248 113568175.19148       395.68848        47.000    21752632.21941
  88494827.68741       308.18841        28.200  
  22776927.38646 119693575.04746      -263.18846        43.300    22776928.68341
  93267742.84541      -205.25041        23.700  
  22992603.31946 120084250.82146     -3233.37546        42.000    22992603.89641
  94150885.37741     -2519.68841        23.800  
  20674972.73049 107905026.85949      -647.37549        47.900    20674974.11342
  84081986.18642      -504.62542        32.400  
  23583084.26045 123187280.58245     -3363.00045        40.200    23583084.22441
  96568778.75941     -2620.68841        11.800  
 04 06 07 12 07  3.0000000  0  6G16G25G 6G30G14G22                              
  21905078.50647 114369287.28847      2260.31347        45.100    21905081.55041
  89119075.66341      1761.12541        23.000  
  21752555.77548 113567779.46148       395.75048        46.900    21752556.89641
  88494519.35041       308.18841        26.100  
  22776977.52746 119693838.63346      -263.93846        43.300    22776978.82841
  93267948.28241      -205.81341        20.700  
  22993218.61346 120087484.15046     -3233.25046        42.100    22993219.15141
  94153404.83541     -2519.56341        10.100  
  20675095.91949 107905674.21249      -647.62549        47.900    20675097.27741
  84082490.60941      -504.81341        29.100  
  23583724.17245 123190643.39745     -3362.75045        40.500                  
                                                
 04 06 07 12 07  4.0000000  0  6G16G25G 6G30G14G22                              
  21904648.42647 114367027.24047      2259.93847        44.900    21904651.28041
  89117314.60541      1760.81341        26.600  
  21752480.46648 113567383.80448       395.50048        46.900    21752482.14941
  88494211.03541       308.00041        27.700  
  22777027.80146 119694102.80046      -264.50046        43.300    22777029.75841
  93268154.11041      -206.25041         8.900  
  22993833.93046 120090717.67646     -3233.62546        42.300    22993835.69741
  94155924.48141     -2519.87541        27.300  
  20675219.21149 107906322.13349      -648.25049        47.900    20675220.32241
  84082995.47641      -505.31341        31.100  
  23584364.11645 123194006.32445     -3363.25045        40.600                  
                                                
 04 06 07 12 07  5.0000000  0  6G16G25G 6G30G14G22                              
  21904218.59347 114364768.49747      2257.50047        45.000    21904221.42741
  89115554.52741      1758.93841        22.700  
  21752405.33448 113566989.01948       393.93848        47.000    21752407.00441
  88493903.41841       306.81341        30.600  
  22777078.32246 119694368.36546      -266.62546        43.300    22777080.27141
  93268361.06341      -207.93841        19.200  
  22994449.44846 120093952.19046     -3235.50046        42.000    22994451.18341
  94158444.88641     -2521.31341        10.100  
  20675342.76049 107906971.41649      -650.43849        47.900    20675343.85441
  84083501.42041      -507.00041        30.200  
  23585004.22745 123197370.11745     -3364.75045        40.100    23585003.75141
  96576645.61751     -2622.06341        14.000  
 04 06 07 12 07  6.0000000  0  6G16G25G 6G30G14G22                              
  21903788.89347 114362510.47147      2258.87547        45.000    21903790.37241
  89113795.01541      1760.00041        22.300  
  21752330.26148 113566594.54048       395.43848        46.900    21752332.12541
  88493596.03041       307.93841        27.000  
  22777129.02246 119694634.74546      -265.93846        43.300    22777131.22141
  93268568.59341      -207.37541        22.400  
  22995065.03146 120097187.09446     -3233.62546        42.000    22995067.58641
  94160965.59941     -2519.87541        25.400  
  20675466.46249 107907621.49949      -649.43849        47.800    20675467.45941
  84084007.98341      -506.25041        29.000  
  23585644.39645 123200734.27745     -3363.31345        40.000    23585643.90341
  96579267.01241     -2620.93841        12.000  
 04 06 07 12 07  7.0000000  0  6G16G25G 6G30G14G22                              
  21903359.04447 114360251.59147      2258.75047        44.900    21903360.49341
  89112034.82041      1759.87541        27.000  
  21752254.94848 113566198.79348       396.00048        47.000    21752256.79541
  88493287.64641       308.43841        27.200  
  22777179.56447 119694900.35847      -265.87547        43.400    22777181.74041
  93268775.54241      -207.31341        27.500  
  22995680.40846 120100420.85846     -3233.62546        42.200    22995682.93141
  94163485.42041     -2519.87541        25.000  
  20675590.01349 107908270.78849      -649.31349        47.800    20675590.99541
  84084513.92341      -506.12541        30.000  
  23586284.31545 123204097.15445     -3362.62545        40.200    23586283.91041
  96581887.42441     -2620.37541        12.000  
 04 06 07 12 07  8.0000000  0  6G16G25G 6G30G14G22                              
  21902929.20647 114357992.82347      2258.62547        45.000    21902929.78041
  89110274.73741      1759.81341        23.500  
  21752179.57248 113565802.75048       395.93848        47.000    21752180.97241
  88492979.03841       308.37541        27.800  
  22777230.14347 119695166.18647      -266.12547        43.500    22777230.82541
  93268982.69041      -207.56341         8.800  
  22996295.74446 120103654.41246     -3233.68846        42.300    22996299.39541
  94166005.06941     -2519.93841        24.400  
  20675713.61149 107908920.28949      -649.75049        47.800    20675714.14941
  84085020.02841      -506.43841        29.800  
  23586924.20045 123207459.74845     -3362.37545        40.200    23586923.76441
  96584507.61541     -2620.18841        14.800  
 04 06 07 12 07  9.0000000  0  6G16G25G 6G30G14G22                              
  21902499.44847 114355734.44347      2258.25047        45.000    21902500.01141
  89108514.99041      1759.50041        26.400  
  21752104.19748 113565406.66248       396.12548        46.900    21752105.57941
  88492670.40641       308.50041        28.900  
  22777280.82847 119695432.49547      -266.56347        43.400    22777281.48041
  93269190.19141      -207.87541        25.500  
  22996911.08746 120106888.04946     -3233.75046        42.300    22996914.70041
  94168524.73041     -2520.00041        23.600  
  20675837.29149 107909570.23249      -650.06349        47.800    20675837.80641
  84085526.47341      -506.68841        29.200  
  23587564.08045 123210822.34045     -3362.37545        40.000    23587561.73941
  96587127.94241     -2620.18841        24.000  
 04 06 07 12 07 10.0000000  0  6G16G25G 6G30G14G22                              
  21902069.76647 114353476.45347      2257.62547        45.000    21902071.04141
  89106755.53641      1759.00041        28.600  
  21752028.81148 113565010.55148       395.93848        46.900    21752030.63141
  88492361.76441       308.37541        27.200  
  22777331.59647 119695699.28847      -267.12547        43.500    22777331.79641
  93269398.08041      -208.31341        27.700  
  22997526.43946 120110121.75646     -3233.81346        42.200    22997530.91441
  94171044.53441     -2520.00041        22.700  
  20675961.07149 107910220.65449      -650.75049        47.900    20675962.31441
  84086033.31041      -507.25041        30.700  
  23588203.97345 123214184.95045     -3362.56345        40.000                  
                                                
 04 06 07 12 07 11.0000000  0  6G16G25G 6G30G14G22                              
  21901640.20347 114351219.12547      2256.75047        45.100    21901641.46741
  89104996.59741      1758.31341        22.800  
  21751953.47748 113564614.68548       395.81348        46.900    21751955.28141
  88492053.30441       308.25041        26.100  
  22777382.51247 119695966.83747      -268.00047        43.500    22777382.69641
  93269606.58041      -209.00041        20.600  
  22998141.85546 120113355.82046     -3234.25046        42.300    22998146.31141
  94173564.56241     -2520.37541        13.200  
  20676084.97749 107910871.79049      -651.43849        47.900    20676086.19741
  84086540.69741      -507.75041        28.500  
  23588843.90945 123217547.79745     -3363.18845        40.200                  
                                                
 04 06 07 12 07 12.0000000  0  6G16G25G 6G30G14G22                              
  21901210.79247 114348962.55147      2256.43847        45.000    21901213.25541
  89103238.22741      1758.12541        25.100  
  21751878.20448 113564219.17448       395.43848        46.900    21751880.25341
  88491745.12241       307.93841        26.000  
  22777433.58146 119696235.22946      -268.68846        43.300    22777434.13641
  93269815.71541      -209.56341        24.600  
  22998757.36246 120116590.34846     -3234.87546        42.300    22998761.01241
  94176085.02241     -2520.87541        25.800  
  20676209.04749 107911523.77849      -652.43849        47.800    20676210.54941
  84087048.74741      -508.56341        29.900  
  23589483.91245 123220911.03245     -3363.62545        39.900    23589484.44941
  96594995.39051     -2621.18841        18.300  
 04 06 07 12 07 13.0000000  0  6G16G25G 6G30G14G22                              
  21900781.49747 114346706.63147      2255.68847        45.200    21900783.94241
  89101480.35741      1757.50041        22.800  
  21751802.96948 113563823.87348       395.18848        46.900    21751805.01041
  88491437.09541       307.75041        23.200  
  22777484.79947 119696504.37047      -269.31347        43.400    22777485.33741
  93270025.45141      -210.00041        22.900  
  22999372.93046 120119825.18746     -3234.93846        42.300    22999376.56241
  94178605.68741     -2520.87541        25.700  
  20676333.24049 107912176.45149      -652.75049        47.800    20676334.72641
  84087557.33141      -508.81341        28.100  
  23590123.93845 123224274.45645     -3363.25045        39.400    23590124.12041
  96597616.21841     -2620.87541        27.000  
 04 06 07 12 07 14.0000000  0  6G16G25G 6G30G14G22                              
  21900352.26347 114344451.03147      2255.50047        45.200    21900353.96841
  89099722.74441      1757.37541        22.000  
  21751727.73048 113563428.49448       395.31348        46.900    21751729.39741
  88491128.99741       307.87541        24.400  
  22777536.10347 119696773.95147      -270.00047        43.500    22777538.04541
  93270235.52241      -210.56341        26.200  
  22999988.50246 120123060.04246     -3234.62546        42.300    22999992.95241
  94181126.35141     -2520.62541        21.400  
  20676457.51049 107912829.54949      -653.25049        47.900    20676459.44141
  84088066.22941      -509.18841        28.800  
  23590763.95645 123227637.87245     -3363.18845        39.400    23590764.11841
  96600236.99341     -2620.81341        25.300  
 04 06 07 12 07 15.0000000  0  6G16G25G 6G30G14G22                              
  21899923.12947 114342195.89547      2255.00047        45.300    21899924.81141
  89097965.51241      1757.00041        17.900  
  21751652.49448 113563033.15448       395.25048        46.900    21751654.14941
  88490820.95041       307.81341        26.800  
  22777587.51547 119697044.08247      -270.50047        43.500    22777589.44241
  93270446.07641      -210.93841         8.700  
  23000604.10546 120126295.06846     -3234.93846        42.300    23000608.54141
  94183647.16841     -2520.87541        22.800  
  20676581.88849 107913483.18349      -653.93849        47.800    20676583.79741
  84088575.55141      -509.75041        29.700  
  23591403.97345 123231001.31745     -3363.43845        39.600    23591405.83941
  96602857.84841     -2621.00041        12.800  
 04 06 07 12 07 16.0000000  0  6G16G25G 6G30G14G22                              
  21899494.05547 114339941.19047      2254.37547        45.300    21899496.38241
  89096208.59241      1756.50041        25.100  
  21751577.25748 113562637.81048       395.25048        46.900    21751578.50041
  88490512.89841       307.81341        27.800  
  22777639.00347 119697314.71747      -271.00047        43.500    22777642.64741
  93270656.96241      -211.31341        23.200  
  23001219.73746 120129530.19646     -3235.18846        42.100    23001222.46141
  94186167.99141     -2521.06341        10.000  
  20676706.36549 107914137.30249      -654.50049        47.800    20676708.16941
  84089085.24641      -510.18841        30.500  
  23592043.99945 123234364.79045     -3363.31345        39.300    23592045.87141
  96605478.77641     -2620.93841        27.200  
 04 06 07 12 07 17.0000000  0  6G16G25G 6G30G14G22                              
  21899065.08647 114337686.93347      2254.06347        45.400    21899067.39141
  89094452.03441      1756.25041        20.100  
  21751502.01648 113562242.50248       395.31348        46.900    21751503.25441
  88490204.87341       307.87541        26.000  
  22777690.60247 119697585.90447      -271.68847        43.500    22777694.22741
  93270868.26541      -211.87541        16.600  
  23001835.39046 120132765.48246     -3235.43846        42.300    23001838.10641
  94188689.03141     -2521.31341        26.700  
  20676830.93248 107914791.95148      -654.93848        47.700    20676832.72241
  84089595.35141      -510.50041        28.400  
  23592684.06645 123237728.34645     -3363.56345        39.700    23592682.97241
  96608099.67741     -2621.12541        21.800  
 04 06 07 12 07 18.0000000  0  6G16G25G 6G30G14G22                              
  21898636.17848 114335432.96348      2253.87548        45.600    21898638.08341
  89092695.70441      1756.12541        17.600  
  21751426.76148 113561847.07048       395.43848        46.900    21751427.97841
  88489896.75441       307.93841        26.600  
  22777742.27646 119697857.46146      -271.75046        43.300    22777744.96841
  93271079.84641      -211.93841        20.600  
  23002451.03046 120136000.71146     -3235.25046        42.200    23002453.52941
  94191209.95241     -2521.12541        18.700  
  20676955.58048 107915446.95248      -655.12548        47.700    20676956.52741
  84090105.73041      -510.62541        29.500  
  23593324.08845 123241091.77345     -3363.62545        39.900    23593322.99441
  96610720.57041     -2621.18841        26.000  
 04 06 07 12 07 19.0000000  0  6G16G25G 6G30G14G22                              
  21898207.31148 114333179.25348      2253.75048        45.600    21898209.19341
  89090939.56841      1756.00041        22.700  
  21751351.47848 113561451.48148       395.81348        46.900    21751352.67341
  88489588.48341       308.25041        25.500  
  22777794.03647 119698129.40347      -272.25047        43.400    22777796.69141
  93271291.73941      -212.31341        17.400  
  23003066.67546 120139235.92146     -3235.00046        42.300    23003069.14441
  94193730.89741     -2520.93841        26.700  
  20677080.29649 107916102.30649      -655.37549        47.800    20677081.20941
  84090616.40341      -510.87541        29.900  
  23593964.09445 123244455.02545     -3362.87545        40.000    23593962.74041
  96613341.25741     -2620.56341        24.200  
 04 06 07 12 07 20.0000000  0  6G16G25G 6G30G14G22                              
  21897778.51647 114330925.86347      2253.12547        45.500    21897780.83941
  89089183.69041      1755.50041        24.800  
  21751276.16848 113561055.77348       395.75048        46.900    21751277.78841
  88489280.15441       308.18841        26.700  
  22777845.85047 119698401.71147      -272.37547        43.400    22777848.88341
  93271503.95341      -212.37541        24.700  
  23003682.31246 120142471.09946     -3235.12546        42.200    23003686.70441
  94196251.83441     -2521.06341        17.200  
  20677205.07449 107916758.04249      -656.12549        47.800    20677206.02541
  84091127.35741      -511.43841        30.300  
  23594604.09245 123247818.22645     -3363.12545        40.100    23594602.72041
  96615961.96741     -2620.75041        18.400  
 04 06 07 12 07 21.0000000  0  6G16G25G 6G30G14G22                              
  21897349.83847 114328673.07247      2252.75047        45.500    21897352.11941
  89087428.26041      1755.25041        17.000  
  21751200.89448 113560660.27248       395.50048        47.000    21751202.50541
  88488971.97241       308.00041        26.900  
  22777897.81046 119698674.76546      -273.50046        43.200    22777900.81741
  93271716.69641      -213.31341        25.600  
  23004298.00446 120145706.61346     -3235.75046        42.200    23004302.38241
  94198773.01541     -2521.50041        17.300  
  20677329.97749 107917414.44849      -656.81349        47.900    20677330.91141
  84091638.84041      -511.93841        29.700  
  23595244.12445 123251181.62545     -3363.31345        39.900    23595241.60541
  96618582.82541     -2620.93841        25.200  
 04 06 07 12 07 22.0000000  0  6G16G25G 6G30G14G22                              
  21896921.23147 114326420.74647      2252.12547        45.400    21896923.19941
  89085673.18241      1754.75041        25.300  
  21751125.62548 113560264.78948       395.50048        46.900    21751127.55441
  88488663.80341       308.00041        24.600  
  22777949.87347 119698948.33347      -273.68847        43.400    22777952.39541
  93271929.85841      -213.43841        17.000  
  23004913.70846 120148942.23446     -3235.56346        42.100    23004918.23841
  94201294.31241     -2521.37541        21.400  
  20677454.99149 107918071.38449      -657.06349        47.900    20677455.96241
  84092150.75241      -512.18841        27.000  
  23595884.15945 123254545.08845     -3363.25045        39.700    23595881.62041
  96621203.68341     -2620.87541        17.200  
 04 06 07 12 07 23.0000000  0  6G16G25G 6G30G14G22                              
  21896492.73947 114324168.99647      2251.37547        45.300    21896494.69041
  89083918.58641      1754.12541        22.000  
  21751050.39348 113559869.46848       395.18848        46.900    21751052.30941
  88488355.77941       307.75041        25.900  
  22778002.05947 119699222.59447      -274.50047        43.400    22778004.55741
  93272143.54641      -214.06341        22.500  
  23005529.48146 120152178.12346     -3236.00046        42.100    23005533.97741
  94203815.74741     -2521.75041        10.100  
  20677580.12749 107918728.97249      -657.68849        47.800    20677581.07841
  84092663.16741      -512.62541        30.500  
  23596524.22145 123257908.72045     -3363.68845        39.900    23596523.79541
  96623824.70641     -2621.25041        27.900  
 04 06 07 12 07 24.0000000  0  6G16G25G 6G30G14G22                              
  21896064.29647 114321917.53947      2251.18847        45.400    21896067.20041
  89082164.22441      1754.00041        25.300  
  21750975.13748 113559474.02548       395.43848        46.900    21750977.26841
  88488047.65041       307.93841        24.800  
  22778054.31446 119699497.26546      -275.18846        43.300    22778055.87741
  93272357.60241      -214.62541        23.900  
  23006145.25346 120155414.00846     -3235.93846        42.300    23006147.16741
  94206337.12341     -2521.68841        28.300  
  20677705.33249 107919386.93449      -658.25049        47.800    20677706.16441
  84093175.86341      -513.06341        27.200  
  23597164.28645 123261272.24545     -3363.37545        40.000    23597163.82741
  96626445.63541     -2621.00041        20.000  
 04 06 07 12 07 25.0000000  0  6G16G25G 6G30G14G22                              
  21895635.94447 114319666.52947      2250.93847        45.400    21895638.82141
  89080410.18241      1753.81341        18.600  
  21750899.89048 113559078.61848       395.25048        47.000    21750902.00541
  88487739.54141       307.81341        27.600  
  22778106.68647 119699772.45947      -275.37547        43.400    22778108.22641
  93272572.06041      -214.75041        23.900  
  23006761.04346 120158650.00746     -3236.00046        41.900    23006762.93741
  94208858.69841     -2521.75041        27.200  
  20677830.63649 107920045.41249      -658.75049        47.800    20677831.44941
  84093688.97441      -513.50041        30.300  
  23597804.34845 123264635.82845     -3363.50045        39.600    23597803.57041
  96629066.63041     -2621.06341        26.300  
 04 06 07 12 07 26.0000000  0  6G16G25G 6G30G14G22                              
  21895207.66747 114317415.89047      2250.50047        45.400    21895210.11041
  89078656.43441      1753.50041        28.600  
  21750824.63448 113558683.14548       395.31348        46.900    21750827.05541
  88487431.36941       307.87541        26.000  
  22778159.13747 119700048.09647      -275.87547        43.400    22778160.01941
  93272786.83341      -215.12541        17.300  
  23007376.83646 120161886.09046     -3236.25046        41.800    23007379.80541
  94211380.37441     -2521.93841        22.500  
  20677956.02749 107920704.33349      -659.31349        47.900    20677957.09441
  84094202.42541      -513.93841        29.000  
  23598444.43045 123267999.37545     -3363.56345        39.600    23598443.61941
  96631687.61341     -2621.12541        24.600  
 04 06 07 12 07 27.0000000  0  6G16G25G 6G30G14G22                              
  21894779.47247 114315165.70047      2249.93847        45.300    21894781.89241
  89076903.04841      1753.06341        25.400  
  21750749.37648 113558287.69648       395.56348        46.800    21750751.77841
  88487123.22541       308.06341        26.300  
  22778211.67946 119700324.29746      -276.31346        43.300    22778212.56841
  93273002.11641      -215.50041        26.000  
  23007992.66546 120165122.28146     -3236.12546        42.100    23007995.60741
  94213902.06441     -2521.81341        22.500  
  20678081.51248 107921363.76348      -659.75048        47.700    20678082.55541
  84094716.26341      -514.25041        25.200  
  23599084.49645 123271362.97145     -3363.31345        39.700    23599083.27341
  96634308.55041     -2620.93841        12.800  
 04 06 07 12 07 28.0000000  0  6G16G25G 6G30G14G22                              
  21894351.31447 114312915.78647      2249.50047        45.400    21894354.29441
  89075149.88541      1752.68841        25.700  
  21750674.09548 113557892.11748       395.37548        46.900    21750676.32841
  88486814.99141       307.93841        26.800  
  22778264.30546 119700600.86546      -277.00046        43.300    22778267.33941
  93273217.66141      -216.00041        25.200  
  23008608.48946 120168358.45146     -3236.43846        42.200    23008609.65041
  94216423.73241     -2522.06341        22.400  
  20678207.07249 107922023.54649      -660.25049        47.800    20678208.23241
  84095230.38141      -514.62541        28.700  
  23599724.54445 123274726.44045     -3363.50045        39.400    23599723.28841
  96636929.41341     -2621.06341        29.200  
 04 06 07 12 07 29.0000000  0  6G16G25G 6G30G14G22                              
  21893923.27247 114310666.41347      2249.25047        45.300    21893926.22641
  89073397.11941      1752.50041        21.500  
  21750598.84548 113557496.66648       395.37548        46.900    21750601.05241
  88486506.84641       307.93841        29.800  
  22778317.05747 119700878.08947      -277.62547        43.400    22778320.06741
  93273433.67041      -216.50041        15.800  
  23009224.36046 120171594.87946     -3236.81346        42.100    23009225.51641
  94218945.68541     -2522.37541        20.300  
  20678332.74448 107922683.96248      -660.93848        47.700    20678333.87741
  84095744.98041      -515.18841        29.300  
  23600364.60845 123278090.07245     -3363.81345        38.900    23600363.57341
  96639550.44441     -2621.31341        23.200  
 04 06 07 12 07 30.0000000  0  6G16G25G 6G30G14G22                              
  21893495.31747 114308417.50447      2248.93847        45.400    21893499.09341
  89071644.73841      1752.25041        27.000  
  21750523.59448 113557101.25548       395.56348        46.900    21750525.42541
  88486198.74241       308.06341        27.500  
  22778369.90847 119701155.84547      -277.68847        43.400    22778372.82241
  93273650.10341      -216.56341        25.900  
  23009840.25446 120174831.40646     -3236.37546        42.000    23009842.23841
  94221467.64341     -2522.00041        15.500  
  20678458.51249 107923344.88849      -660.81349        47.800    20678459.81841
  84096259.99341      -515.06341        27.900  
  23601004.70644 123281453.76144     -3363.56344        38.700    23601003.63941
  96642171.49741     -2621.12541        20.900  
 04 06 07 12 07 31.0000000  0  6G16G25G 6G30G14G22                              
  21893067.44247 114306168.97047      2248.25047        45.400    21893071.19041
  89069892.63441      1751.68841        21.800  
  21750448.34148 113556705.79648       395.25048        46.900    21750450.14741
  88485890.59141       307.81341        23.100  
  22778422.84546 119701434.08646      -278.56346        43.200    22778425.74141
  93273866.89241      -217.25041        23.600  
  23010456.16246 120178068.01646     -3236.75046        42.000    23010458.13141
  94223989.69441     -2522.31341        16.800  
  20678584.36648 107924006.27048      -661.62548        47.700    20678585.64741
  84096775.35141      -515.68841        29.100  
  23601644.74745 123284817.41545     -3363.50045        39.100    23601641.95741
  96644792.64241     -2621.06341        28.800  
 04 06 07 12 07 32.0000000  0  6G16G25G 6G30G14G22                              
  21892639.66647 114303920.95647      2247.81347        45.500    21892642.88841
  89068140.93241      1751.37541        24.000  
  21750373.10148 113556310.43548       395.31348        47.000    21750374.53041
  88485582.53441       307.87541        28.100  
  22778475.90346 119701712.92846      -279.12546        43.300    22778477.95941
  93274084.14441      -217.68841        23.600  
  23011072.10146 120181304.83046     -3236.81346        42.000    23011076.51741
  94226511.88641     -2522.37541        23.600  
  20678710.33149 107924668.24349      -662.31349        47.800    20678711.62441
  84097291.18441      -516.25041        29.000  
  23602284.82945 123288181.17045     -3363.81345        39.400    23602282.03641
  96647413.76941     -2621.31341        26.100  
 04 06 07 12 07 33.0000000  0  6G16G25G 6G30G14G22                              
  21892211.96147 114301673.38047      2247.50047        45.400    21892215.16341
  89066389.55841      1751.12541        20.600  
  21750297.86448 113555915.08948       395.56348        46.900    21750299.27541
  88485274.47341       308.06341        29.400  
  22778529.05946 119701992.31746      -279.50046        43.300    22778531.10241
  93274301.87641      -217.93841        24.700  
